site_id,site_nom,site_type,site_adresse,site_statut,comm_nom,comm_insee,epci_siren,epci_nom,bati_surface,proprio_type(catpro3),proprio_personne,idprocpte,proprio_nom,sol_pollution_existe,unite_fonciere_surface,unite_fonciere_refcad,geompoint,longitude,latitude
08008_01,Délaissé ferroviaire d’Amagne-Lucquy,friche ferroviaire,RD 21,friche sans projet,Amagne,08008,200043156,CC du Pays Rethélois,,R2a|P4a,personne morale,08008+00068|08262+00046|08262+00045,COMMUNAUTE COMMUNE CRETES PREARDENNAISES|SOCIETE NATIONALE SNCF,pollution inexistante,97540,08008000ZK0111|08008000ZK0116|08262000AD0120|08262000AD0336|08262000AD0337,Point (4.483852 49.524312),4.483852,49.524312
08022_01,Ferronerie Doudoux,friche industrielle,2 rue de la Sablonnière,friche reconvertie,Arreux,08022,200041630,CA Ardenne Métropole,,X1a,personne physique,08022N00004,_X_,pollution inexistante,1002,08022000AB0128|08022000AB0248|08022000AB0249|08022000AB0279,Point (4.651847 49.825876),4.651847,49.825876
08025_01,Sucrerie Beghin Say – Guerletub,friche agro-industrielle,31 rue Eugène Frère,friche sans projet,Attigny,08025,240800862,CC des Crêtes Préardennaises,,G1a|Z1a,personne morale,08025+00139|08025+00076|08025+00120,_X_|SCI,pollution avérée,39576,08025000AB0030|08025000AB0047|08025000AB0049|08025000AB0152|08025000AB0248|08025000AB0253|08025000AB0273|08025000AB0291|08025000AB0292|08025000AB0348|08025000AB0349|08025000AB0350|08025000AB0351,Point (4.571476 49.479169),4.571476,49.479169
08025_02,Collège Charlemagne d’Attigny,friche enseignement,Rue Verlaine,friche sans projet,Attigny,08025,240800862,CC des Crêtes Préardennaises,,P3a P5a,personne morale,08025+00141,COMMUNE D'ATTIGNY|DEPARTEMENT DES ARDENNES,pollution inexistante,5452,08025000AC0838,Point (4.57898 49.474145),4.57898,49.474145
08026_01,Ancienne gare d’Aubigny,friche ferroviaire,1 rue de la Gare,friche sans projet,Aubigny-les-Pothées,08026,200041622,CC Ardennes Thiérache,,R2a,personne morale,08026+00063,SNCF RESEAU,pollution inexistante,800,08026000AB0219,Point (4.444704 49.777377),4.444704,49.777377
08028_01,Hôtel À l’Impératrice Eugénie,friche loisir tourisme hôtellerie,Les Grands Trilleux RD 8051,friche sans projet,Aubrives,08028,240800821,CC Ardenne Rives de Meuse,,X1a,personne physique,08028K00016,_X_,pollution inexistante,2092,080280000A0026|080280000A0027|080280000A0972|080280000A0973,Point (4.769692 50.116375),4.769692,50.116375
08035_01,Les Tourbières de la Bar – Dumona,friche agro-industrielle,RD 947,friche sans projet,Autruche,08035,240800920,CC de l’Argonne Ardennaise,,M1a,personne morale,08035+00030,_X_,pollution inexistante,24619,08035000ZL0015|08035000ZL0017,Point (4.897168 49.440541),4.897168,49.440541
08037_01,Établissements J. Tourolle,friche industrielle,Route de Champlin / Place de la Mairie,friche sans projet,Auvillers-les-Forges,08037,200041622,CC Ardennes Thiérache,,X1a,personne physique,08037P00080,_X_,pollution peu probable,1118,080370000D0405,Point (4.357001 49.862062),4.357001,49.862062
08037_02,Bâtiment incendié de Bell’Occas,friche industrielle,19 route de Rocroi,friche avec projet,Auvillers-les-Forges,08037,200041622,CC Ardennes Thiérache,,S2e,personne morale,08037+00098,BELL'OCCAS,pollution inexistante,487,080370000A0541|080370000A0565|080370000A0609|080370000A0721,Point (4.376428 49.875004),4.376428,49.875004
08043_01,Raynaud récupération métaux,friche industrielle,Allée des Cerisiers,friche sans projet,Balan,08043,200041630,CA Ardenne Métropole,,Z1a,personne morale,08043+00086,_X_,pollution supposée,5228,080430000A0503|080430000A0504|080430000A0576,Point (4.963793 49.692383),4.963793,49.692383
08043_02,Aldi,friche commerciale,54 avenue Charles de Gaulle,friche sans projet,Balan,08043,200041630,CA Ardenne Métropole,,F7b,personne morale,08043+00157,IMMALDI ET COMPAGNIE,pollution inexistante,3639,080430000B0109|080430000B0110|080430000B0111|080430000B0113|080430000B0803|080430000B0855|080430000B0870|080430000B0871,Point (4.96141 49.690927),4.96141,49.690927
08067_01,Aciérie de la Chiers – Usinor,friche industrielle,Les Forges,friche sans projet,Blagny,08067,240800847,CC des Portes du Luxembourg,,G1a,personne morale,08067+00123,SCI,pollution avérée,60096,08067000AB0089,Point (5.193869 49.615629),5.193869,49.615629
08073_01,Ancien corps de ferme,friche agro-industrielle,2 rue du Lavoir,friche avec projet,Bossus-lès-Rumigny,08073,200041622,CC Ardennes Thiérache,,P5a,personne morale,08073+00020,COMMUNE DE BOSSUS LES RUMIGNY,pollution inexistante,952,080730000C0157,Point (4.256988 49.838208),4.256988,49.838208
08076_01,Brasserie Colinet,friche agro-industrielle,Rue de Gailla,friche avec projet,Boulzicourt,08076,240800862,CC des Crêtes Préardennaises,,X1a,personne physique,08076C00014,_X_,pollution inexistante,2112,08076000AC0063,Point (4.692998 49.69586),4.692998,49.69586
08078_01,Fonderie Le Réveil,friche industrielle,30 rue Charles de Gaulle,friche reconvertie,Bourg-Fidèle,08078,200067759,CC Vallées et Plateau d’Ardenne,,G1a,personne morale,08078+00058,SCI,pollution traitée,5090,08078000AB0125,Point (4.536307 49.889607),4.536307,49.889607
08081_01,Atelier des Janves site Château-Regnault,friche industrielle,Rue de la Meuse,friche reconvertie,Bogny-sur-Meuse,08081,200067759,CC Vallées et Plateau d’Ardenne,,P4a|P3a,personne morale,08081+00460|08081+00333,COMMUNAUTE DE COMMUNES VAL ET PLATEAU D'ARDENNE|DEPARTEMENT DES ARDENNES,pollution traitée,13187,08081000AC0051|08081000AC0063|08081000AC0064|08081000AC0065|08081000AC0066|08081000AC0067|08081000AC0068|08081000AC0072|08081000AC0298|08081000AC0314|08081000AC0315|08081000AC0316|08081000AC0317|08081000AC0318|08081000AC0319|08081000AC0320|08081000AC0321|08081000AC0322|08081000AC0323,Point (4.745443 49.85909),4.745443,49.85909
08081_02,Boulonnerie Vaucher,friche industrielle,2 rue de la Chandellerie,friche sans projet,Bogny-sur-Meuse,08081,200067759,CC Vallées et Plateau d’Ardenne,,P5a,personne morale,08081+00402,COMMUNE DE BOGNY-SUR-MEUSE,pollution supposée,2893,08081000AN0465,Point (4.759782 49.861097),4.759782,49.861097
08081_03,FAV-LCAB,friche industrielle,34 rue de la Chandellerie,friche avec projet,Bogny-sur-Meuse,08081,200067759,CC Vallées et Plateau d’Ardenne,,P4a,personne morale,08081+00529,CC VALLEES ET PLATEAU D'ARDENNE,pollution traitée,26052,08081000AN0029|08081000AN0033|08081000AN0034|08081000AN0035|08081000AN0036|08081000AN0395|08081000AN0398|08081000AN0400|08081000AN0404|08081000AN0477,Point (4.756473 49.862137),4.756473,49.862137
08081_04,FGR Freddy Golinval Recyclage,friche industrielle,Rue des Cerisiers,friche sans projet,Bogny-sur-Meuse,08081,200067759,CC Vallées et Plateau d’Ardenne,,X1a,personne physique,08081G00486,_X_,pollution supposée,5012,08081000AA0073|08081000AA0074,Point (4.775175 49.840733),4.775175,49.840733
08081_05,Lenoir et Mernier,friche industrielle,44 rue Laurent Helmuth ,friche sans projet,Bogny-sur-Meuse,08081,200067759,CC Vallées et Plateau d’Ardenne,,G1a,personne morale,08081+00312,SCI,pollution supposée,15700,08081000AE0034|08081000AE0035|08081000AE0042|08081000AE0044|08081000AE0055|08081000AE0762|08081000AE0763|08081000AE0764|08081000AE0765|08081000AE0766|08081000AE0769|08081000AE0770|08081000AE0771|08081000AE0772|08081000AE0773|08081000AE0774|08081000AE0775|08081000AE0776,Point (4.770253 49.851005),4.770253,49.851005
08081_06,Moulin à farine,friche agro-industrielle,57 ter rue Maurice Louis ,friche sans projet,Bogny-sur-Meuse,08081,200067759,CC Vallées et Plateau d’Ardenne,,G2a,personne morale,08081*00006,COPROPRIETE,pollution peu probable,1045,08081000AT0276,Point (4.736065 49.861294),4.736065,49.861294
08081_07,Ancien garage,friche commerciale,41 rue de la Vallée,friche sans projet,Bogny-sur-Meuse,08081,200067759,CC Vallées et Plateau d’Ardenne,,X1a,personne physique,08081R00366,_X_,pollution supposée,762,08081000AL0153,Point (4.758423 49.85887),4.758423,49.85887
08081_08,Ideal Pierre Concept,friche industrielle,Avenue des Marguerites,friche sans projet,Bogny-sur-Meuse,08081,200067759,CC Vallées et Plateau d’Ardenne,,Z1a,personne morale,08081+00485,_X_,pollution peu probable,6200,08081000AA0174,Point (4.776488 49.843316),4.776488,49.843316
08081_09,Halle fret gare de Monthermé,friche ferroviaire,Rue Maurice Louis ,friche sans projet,Bogny-sur-Meuse,08081,200067759,CC Vallées et Plateau d’Ardenne,,R2a,personne morale,08081+00434,SOCIETE NATIONALE SNCF,pollution peu probable,20475,08081000AV0117,Point (4.741337 49.86738),4.741337,49.86738
08089_01,Haras du Château Augeard,friche loisir tourisme hôtellerie,Rue du Château,friche sans projet,Buzancy,08089,240800920,CC de l’Argonne Ardennaise,,P3a,personne morale,08089+00108,DEPARTEMENT DES ARDENNES,pollution inexistante,66145,08089000AI0383|08089000AI0384|08089000ZV0051,Point (4.951217 49.422984),4.951217,49.422984
08089_02,Villa Gobron,friche d’habitat,18 rue Chanzy,friche avec projet,Buzancy,08089,240800920,CC de l’Argonne Ardennaise,,F1a,personne morale,08089+00038,HABITAT 08 - OFFICE PUBLIC DE L'HABITAT DES ARDENNES,pollution inexistante,1605,08089000AI0153|08089000AI0154,Point (4.956715 49.425222),4.956715,49.425222
08090_01,Établissement Biette,friche agro-industrielle,2 rue des Remparts,friche avec projet,Carignan,08090,240800847,CC des Portes du Luxembourg,,P5a,personne morale,08090+00280,COMMUNE DE CARIGNAN,pollution inexistante,1036,08090000AN0560,Point (5.168961 49.630894),5.168961,49.630894
08105_01,Fonderie du Moulinet puis Bricomarché,friche commerciale,59-79 rue d’Étion/18 rue de Verdun,friche avec projet,Charleville-Mézières,08105,200041630,CA Ardenne Métropole,,F7b,personne morale,08105+04044,L'IMMOBILIERE EUROPEENNE DES MOUSQUETAIRES,pollution inexistante,24153,08105000AZ0475|08105000AZ0476|08105000AZ0477|08105000AZ0478|08105000AZ0480|08105000AZ0782,Point (4.707959 49.779977),4.707959,49.779977
08105_02,Deville – Hermès,friche industrielle,76 avenue Forest,friche avec projet,Charleville-Mézières,08105,200041630,CA Ardenne Métropole,,F2a|P3a,personne morale,08105+05393|08105+04041,DEPARTEMENT DES ARDENNES|ETABLISSEMENT PUBLIC FONCIER DE GRAND EST,pollution traitée,20713,08105000AO0110|08105000AO0558|08105000AO0559,Point (4.728384 49.774654),4.728384,49.774654
08105_03,Deville – Bâtiments blancs,friche industrielle,Rue Louis Fraison,friche avec projet,Charleville-Mézières,08105,200041630,CA Ardenne Métropole,,F2a,personne morale,08105+05393,ETABLISSEMENT PUBLIC FONCIER DE GRAND EST,pollution avérée,11438,08105000AO0111,Point (4.730263 49.77471),4.730263,49.77471
08105_04,École Normale,friche enseignement,Rue Jean-Baptiste Clément,friche reconvertie,Charleville-Mézières,08105,200041630,CA Ardenne Métropole,,G2a,personne morale,08105*01222,COPROPRIETE,pollution inexistante,7435,08105000AK1054,Point (4.717914 49.777108),4.717914,49.777108
08105_05,Shopi,friche commerciale,Rue Frédéric Chopin,friche reconvertie,Charleville-Mézières,08105,200041630,CA Ardenne Métropole,,P5a,personne morale,08105+03773,COMMUNE DE CHARLEVILLE-MEZIERES,pollution inexistante,1190,08105000AZ0404,Point (4.708935 49.782942),4.708935,49.782942
08105_06,Manestamp,friche industrielle,34 rue de l'Abreuvoir,friche avec projet,Charleville-Mézières,08105,200041630,CA Ardenne Métropole,,P5a,personne morale,08105+03773,COMMUNE DE CHARLEVILLE-MEZIERES,pollution avérée,27664,08105000AP0084|08105000AP0085|08105000AP0088|08105000AP0089|08105000AP0095|08105000AP0096|08105000AP0184,Point (4.730943 49.770211),4.730943,49.770211
08105_07,Fonderie de la Société des Aciéries de Charleville,friche industrielle,17 rue de l’Abattoir,friche sans projet,Charleville-Mézières,08105,200041630,CA Ardenne Métropole,,X1a,personne physique,08105C03706,_X_,pollution supposée,4592,08105000AP0201,Point (4.731293 49.769408),4.731293,49.769408
08105_08,Ancienne triperie,friche agro-industrielle,11 rue de l’Abattoir,friche avec projet,Charleville-Mézières,08105,200041630,CA Ardenne Métropole,,P5a,personne morale,08105+03773,COMMUNE DE CHARLEVILLE-MEZIERES,pollution inexistante,717,08105000AP0217|08105000AP0294,Point (4.730704 49.769265),4.730704,49.769265
08105_09,Panification industrielle Claude Chrétien (PICC),friche agro-industrielle,15 rue des Forges Saint-Charles,friche sans projet,Charleville-Mézières,08105,200041630,CA Ardenne Métropole,,G1a,personne morale,08105+05021|08105+03213,SCI,pollution peu probable,1117,08105000AP0272|08105000AP0273,Point (4.729207 49.77066),4.729207,49.77066
08105_10,Société technique construction rurale,friche industrielle,43 rue des Forges Saint-Charles,friche sans projet,Charleville-Mézières,08105,200041630,CA Ardenne Métropole,,G2a,personne morale,08105*00918,COPROPRIETE,pollution peu probable,1027,08105000AP0121,Point (4.728404 49.769456),4.728404,49.769456
08105_11,Société Desmarais Frères puis Total,friche commerciale,19 rue Chanzy,friche avec projet,Charleville-Mézières,08105,200041630,CA Ardenne Métropole,,G1a,personne morale,08105+02883,SCI,pollution supposée,14224,08105000BK0249|08105000BK0432|08105000BK0434|08105000BK0437,Point (4.740591 49.771532),4.740591,49.771532
08105_12,Buffet de la gare,friche loisir tourisme hôtellerie,8 place de la Gare,friche reconvertie,Charleville-Mézières,08105,200041630,CA Ardenne Métropole,,R2a,personne morale,08105+03196,SNCF RESEAU,pollution inexistante,603,08105000AP0304|08105000AP0305,Point (4.72477 49.767534),4.72477,49.767534
08105_13,La Macérienne,friche industrielle,10 avenue Louis Tirman,friche avec projet,Charleville-Mézières,08105,200041630,CA Ardenne Métropole,,P4a,personne morale,08105+04790,COMMUNAUTE AGGLO ARDENNE METROPOLE,pollution avérée,47810,08105000CE0014|08105000CE0017|08105000CE0018|08105000CE0416|08105000CE0591|08105000CE0593|08105000CE0596,Point (4.712182 49.763541),4.712182,49.763541
08105_14,Centrale électrique tréfilerie Lefort,friche industrielle,Rue Jean-Baptiste Lefort,friche reconvertie,Charleville-Mézières,08105,200041630,CA Ardenne Métropole,,G1c,personne morale,08105+05203,SCI,pollution traitée,2575,08105000CY0558|08105000CY0559|08105000CY0561|08105000CY0599,Point (4.730027 49.740982),4.730027,49.740982
08105_15,Fonderie Grandry,friche industrielle,21 rue Jules Lobet,friche avec projet,Charleville-Mézières,08105,200041630,CA Ardenne Métropole,,F1a,personne morale,08105+04908,SA DES HABITATIONS A LOYER MODERE,pollution traitée,30503,08105000DO0102|08105000DO0103|08105000DO0188|08105000DO0198|08105000DO0199|08105000DO0200|08105000DO0224|08105000DO0225|08105000DO0226|08105000DO0239|08105000DO0241|08105000DO0259|08105000DO0269|08105000DO0308,Point (4.714277 49.753308),4.714277,49.753308
08105_16,Usine des Ateliers d’estampage de la Vence,friche industrielle,22 rue Paul Bert,friche sans projet,Charleville-Mézières,08105,200041630,CA Ardenne Métropole,,P5a,personne morale,08105+01422,COMMUNE DE VILLERS SEMEUSE,pollution avérée,4677,08105000CY0363|08105000CY0369,Point (4.734548 49.742472),4.734548,49.742472
08105_17,Hôpital Corvisart,friche hospitalière,Rue d’Aubilly,friche avec projet,Charleville-Mézières,08105,200041630,CA Ardenne Métropole,,F1a|F7b|G2a,personne morale,08105+04908|08105+05350|08105*01227,COPROPRIETE|FRANCE PIERRE PATRIMOINE|SA DES HABITATIONS A LOYER MODERE,pollution inexistante,8137,08105000AO0377|08105000AO0378|08105000AO0549|08105000AO0550|08105000AO0551|08105000AO0552|08105000AO0553,Point (4.725011 49.77357),4.725011,49.77357
08105_18,Parking rue de la Vieille Meuse,friche d’équipement public,Rue de la Vieille Meuse,friche reconvertie,Charleville-Mézières,08105,200041630,CA Ardenne Métropole,,P5a,personne morale,08105+03773,COMMUNE DE CHARLEVILLE-MEZIERES,pollution traitée,1036,08105000CR0373|08105000CR0393|08105000CR0403,Point (4.711561 49.757016),4.711561,49.757016
08105_19,Garage Inchelin puis restaurant Mel’s Dinner,friche commerciale,Quai Albert 1er ,friche sans projet,Charleville-Mézières,08105,200041630,CA Ardenne Métropole,,X1a,personne physique,08105B04726,_X_,pollution traitée,324,08105000CT0079|08105000CT0299,Point (4.718854 49.758331),4.718854,49.758331
08105_20,Hôtel place Ducale,friche d’équipement public,Place Ducale,friche avec projet,Charleville-Mézières,08105,200041630,CA Ardenne Métropole,,P5a|G2a X1a|G2c,personne morale|personne physique,08105+03773|08105D02374|08105*00788,_X_|COMMUNE DE CHARLEVILLE-MEZIERES|COPROPRIETE,pollution inexistante,1603,08105000XA0059|08105000XA0441|08105000XA0467|08105000XA0468|08105000XA0470,Point (4.719711 49.773154),4.719711,49.773154
08105_21,Garage Dumont,friche industrielle,4 rue Camille Didier,friche avec projet,Charleville-Mézières,08105,200041630,CA Ardenne Métropole,,F4a,personne morale,08105+04199,SOC EQUIPEMENT AMENAGEMENT DES ARDENNES,pollution avérée,11391,08105000CY0637,Point (4.735828 49.740177),4.735828,49.740177
08105_22,Salle Manureva,friche loisir tourisme hôtellerie,11 rue Jean-Baptiste Clément,friche avec projet,Charleville-Mézières,08105,200041630,CA Ardenne Métropole,,F2a,personne morale,08105+05393,ETABLISSEMENT PUBLIC FONCIER DE GRAND EST,pollution traitée,704,08105000XA0009|08105000XA0010,Point (4.718736 49.775617),4.718736,49.775617
08105_23,"Quartier des Forges Saint-Charles : Gédimat, Sporting, Chausson matériaux et Perrin",friche industrielle,Rue des Forges Saint-Charles,friche avec projet,Charleville-Mézières,08105,200041630,CA Ardenne Métropole,,F4a|F7b|P4a,personne morale,08105+04199|08105+02695|08105+04790|08105+04169,COMMUNAUTE AGGLO ARDENNE METROPOLE|SOC EQUIPEMENT AMENAGEMENT DES ARDENNES|SOCIETE FINANCIERE PERIN,pollution inexistante,24917,08105000AP0123|08105000AP0124|08105000AP0125|08105000AP0141|08105000AP0159|08105000AP0190|08105000AP0193|08105000AP0196|08105000AP0206|08105000AP0207|08105000AP0208|08105000AP0209|08105000AP0210|08105000AP0231|08105000AP0274|08105000AP0278|08105000AP0279|08105000AP0303,Point (4.7293 49.768451),4.7293,49.768451
08105_24,Cap Sambp menuiserie,friche industrielle,67 rue des Forges Saint-Charles,friche potentielle,Charleville-Mézières,08105,200041630,CA Ardenne Métropole,,F6c,personne morale,08105+01862,67 SAINT CHARLES,pollution peu probable,9295,08105000AP0139|08105000AP0197,Point (4.727888 49.766973),4.727888,49.766973
08105_25,Altom,friche industrielle,23 rue Camille Didier,friche avec projet,Charleville-Mézières,08105,200041630,CA Ardenne Métropole,,F4a,personne morale,08105+04199,SOC EQUIPEMENT AMENAGEMENT DES ARDENNES,pollution inexistante,2542,08105000CY0266,Point (4.733053 49.735498),4.733053,49.735498
08105_26,Ancien  Ehpad – Maison des Internes,friche hospitalière,Quai Jean Charcot / Place Jacques Félix,friche avec projet,Charleville-Mézières,08105,200041630,CA Ardenne Métropole,,S1a,personne morale,08105+05290,CENTRE HOSPITALIER INTERCOMMUNAL NORD ARDENNES,pollution inexistante,3736,08105000AO0564|08105000AO0565|08105000AO0566,Point (4.725364 49.775053),4.725364,49.775053
08105_27,Rotondes de Mohon,friche ferroviaire,Rue du Port,friche sans projet,Charleville-Mézières,08105,200041630,CA Ardenne Métropole,,R2a,personne morale,08105+04276,SOCIETE NATIONALE SNCF,pollution peu probable,17905,08105000CW0242,Point (4.726263 49.755503),4.726263,49.755503
08105_28,Magasin Croc’Affaires,friche commerciale,Rue des Anciens Combattants d’Afrique du Nord,friche sans projet,Charleville-Mézières,08105,200041630,CA Ardenne Métropole,,M1a|S2e,personne morale,08105+05289|08105+04945|08105+05199,_X_|ASS ARDENNAISE POUR PROMOTION HANDICAPES,pollution inexistante,16024,08105000DW0441|08105000DW0442|08105000DW0443|08105000DW0444|08105000DW0445|08105000DW0446|08105000DW0447|08105000DW0448|08105000DW0449|08105000DW0450|08105000DW0451,Point (4.728039 49.747227),4.728039,49.747227
08105_29,Collège Jean de la Fontaine,friche enseignement,Rue Jean de la Fontaine,friche sans projet,Charleville-Mézières,08105,200041630,CA Ardenne Métropole,,P5a|P3a,personne morale,08105+03773|08105+04357,COMMUNE DE CHARLEVILLE-MEZIERES|CONSEIL GENERAL DES ARDENNES,pollution inexistante,13474,08105000EE0221|08105000EE0222|08105000EE0223|08105000EE0224|08105000EE0225|08105000EE0226|08105000EE0227|08105000EE0228|08105000EE0229|08105000EE0409,Point (4.701323 49.779938),4.701323,49.779938
08107_01,Société VMI,friche industrielle,1 rue des Cliquots,friche sans projet,Château-Porcien,08107,200043156,CC du Pays Rethélois,,Z2b,personne morale,08107+00169,_X_,pollution supposée,2608,08107000AE0451,Point (4.25338 49.532186),4.25338,49.532186
08111_01,Emplacement de l’ancienne gare du Châtelet,friche ferroviaire,RD 15A,friche avec projet,Le Châtelet-sur-Retourne,08111,200043156,CC du Pays Rethélois,,R2a,personne morale,08111+00088,SOCIETE NATIONALE SNCF,pollution peu probable,10964,08111000AA0061|08111000AA0062|08111000AA0063,Point (4.280236 49.419791),4.280236,49.419791
08116_01,Collège du Chesne,friche enseignement,Rue Lucien Hubert,friche avec projet,Bairon et ses environs,08116,240800920,CC de l’Argonne Ardennaise,,P4b,personne morale,08116+00159,SIVOM DE LA REGION DU CHESNE,pollution inexistante,12568,08116000AD0103,Point (4.77716 49.516035),4.77716,49.516035
08136_01,Terrain militaire,friche militaire,Les Grands Triots,friche reconvertie,Daigny,08136,200041630,CA Ardenne Métropole,,M1a X1a,personne morale|personne physique,08136+00039|08136+00038,_X_,pollution inexistante,429721,08136000AD0052|08136000AD0228|08136000AD0229,Point (5.004252 49.708644),5.004252,49.708644
08139_01,Fonderie Collignon - Saint Éloi,friche industrielle,Rue du Buchy,friche sans projet,Deville,08139,200067759,CC Vallées et Plateau d’Ardenne,,Z1a,personne morale,08139+00051,_X_,pollution avérée,15897,08139000AC0268|08139000AC0269|08139000AC0272|08139000AC0273|08139000AC0274|08139000AC0281|08139000AC0630|08139000AC0632|08139000AC0635|08139000AC0636|08139000AC0637|08139000AC0640|08139000AC0643|08139000AC0644|08139000AC0668|08139000AC0669|08139000AD0416,Point (4.708257 49.87848),4.708257,49.87848
08139_02,Fonderie Cury et Charrier,friche industrielle,Rue du Buchy,friche sans projet,Deville,08139,200067759,CC Vallées et Plateau d’Ardenne,,G1a,personne morale,08139+00071,SCI,pollution supposée,5828,08139000AD0284,Point (4.70862 49.876083),4.70862,49.876083
08139_03,Fonderie Gustin,friche industrielle,Route de Sécheval,friche sans projet,Deville,08139,200067759,CC Vallées et Plateau d’Ardenne,,X1a,personne physique,08139P00110,_X_,pollution supposée,7947,08139000AE0052|08139000AE0075,Point (4.697899 49.872768),4.697899,49.872768
08139_04,Fonderie Lacroix,friche industrielle,952 Grande Rue,friche sans projet,Deville,08139,200067759,CC Vallées et Plateau d’Ardenne,,P5a,personne morale,08139+00076|08139+00004,COMMUNE DE DEVILLE,pollution supposée,5178,08139000AB0112|08139000AB0113|08139000AB0114|08139000AB0115|08139000AB0116|08139000AB0117|08139000AB0118|08139000AB0484|08139000AB0486,Point (4.704687 49.882971),4.704687,49.882971
08140_01,Coopérative laitière agricole du nord des Ardennes,friche agro-industrielle,16 route Nationale,friche reconvertie,Dom-le-Mesnil,08140,200041630,CA Ardenne Métropole,,X1a|Z2b,personne morale|personne physique,08140C00090|08140D00254|08140+00092|08140G00100|08140M00176|08140G00077,_X_,pollution peu probable,8469,08140000AD0090|08140000AD0091|08140000AD0093|08140000AD0094|08140000AD0095|08140000AD0237|08140000AD0238|08140000AD0401|08140000AD0405|08140000AD0407|08140000AD0439|08140000AD0440|08140000AD0458|08140000AD0459|08140000AD0460|08140000AD0461|08140000AD0462|08140000AD0463,Point (4.814277 49.687991),4.814277,49.687991
08168_01,Filature Oudin,friche industrielle,12 rue Principale,friche avec projet,La Ferté-sur-Chiers,08168,240800847,CC des Portes du Luxembourg,,M1a,personne morale,08168+00022,_X_,pollution peu probable,20203,08168000AA0209|08168000AA0210|08168000AA0211|08168000AA0212|08168000ZA0029,Point (5.238825 49.575033),5.238825,49.575033
08172_01,Usine Faure et Cie,friche industrielle,Le Calvaire,friche sans projet,Fligny,08172,200041622,CC Ardennes Thiérache,,X1a,personne physique,08172R00029|08172B00009|08420B00021,_X_,pollution supposée,21732,081720000A0400|081720000A0401|081720000A0402|081720000A0413|081720000A0414|081720000A0432|08420000ZM0086,Point (4.282239 49.892236),4.282239,49.892236
08173_01,"Aciéries de Flize, société Métallurgique de l’Escaut puis Christo-Fers",friche industrielle,40 rue Roger Salengro,friche sans projet,Flize,08173,200041630,CA Ardenne Métropole,,G1a|X1a,personne morale|personne physique,08173+00064|08173B00153,_X_|SCI,pollution supposée,25987,08173000AC0949|08173000AC0953|08173000AC0965,Point (4.773914 49.695435),4.773914,49.695435
08173_02,Ancienne usine Vynex,friche industrielle,Lieu-dit La Foulerie Balaives-et-Butz,friche sans projet,Flize,08173,200041630,CA Ardenne Métropole,,M1a,personne morale,08173+00149|08173+00138,_X_,pollution supposée,12431,081730420B0063|081730420B0065|081730420B0066|081730420B0067|081730420B0558|081730420B0559|081730420B0560|081730420B0561|081730420B0562|081730420B0563|081730420B0564|081730420B0565|081730420B0566|081730420B0567|081730420B0568|081730420B0569|081730420B0570|081730420B0571|081730420B0572|081730420B0573|081730420B0574|081730420B0575,Point (4.745385 49.673651),4.745385,49.673651
08184_01,Gare de Margut-Fromy,friche ferroviaire,Avenue de la Gare,friche sans projet,Fromy,08184,240800847,CC des Portes du Luxembourg,,R2a,personne morale,08184+00014,SOCIETE NATIONALE SNCF,pollution inexistante,3521,08184000AE0133,Point (5.257137 49.59086),5.257137,49.59086
08185_01,L’Émaillerie Ardennaise,friche industrielle,Rue de l’Émaillerie,friche sans projet,Fumay,08185,240800821,CC Ardenne Rives de Meuse,,M1a,personne morale,08185+00034,_X_,pollution supposée,3267,08185000AL0170|08185000AL0171,Point (4.689952 49.983207),4.689952,49.983207
08185_02,Stade Nexans,friche d’équipement public,Allée des Pommiers,friche sans projet,Fumay,08185,240800821,CC Ardenne Rives de Meuse,,M1a,personne morale,08185+00207,_X_,pollution inexistante,17349,08185000AN0012|08185000AN0013,Point (4.688635 49.988316),4.688635,49.988316
08185_03,Hôtel des Roches,friche loisir tourisme hôtellerie,Avenue Jean Jaurès,friche sans projet,Fumay,08185,240800821,CC Ardenne Rives de Meuse,,G1a,personne morale,08185+00200,SCI,pollution inexistante,844,08185000AP0057|08185000AP0095,Point (4.697222 49.990578),4.697222,49.990578
08190_01,Cellatex et Est Réfractaires,friche industrielle,Route de Bon Secours,friche avec projet,Givet,08190,240800821,CC Ardenne Rives de Meuse,,P4a,personne morale,08190+00635,COMMUNAUTE COMMUNES ARDENNE RIVES MEUSE,pollution avérée,70393,08190000BI0225|08190000BI0229|08190000BI0241|08190000BI0243|08190000BI0247|08190000BI0248|08190000BI0260|08190000BI0261|08190000BI0262|08190000BI0263|08190000BI0264|08190000BI0265|08190000BI0266|08190000BI0267|08190000BI0268|08190000BI0269|08190000BI0270|08190000BI0271,Point (4.822988 50.154464),4.822988,50.154464
08190_02,Gascogne-Laminates – Sopal,friche industrielle,67 boulevard Bourck,friche sans projet,Givet,08190,240800821,CC Ardenne Rives de Meuse,,Z1a,personne morale,08190+00206,_X_,pollution avérée,16644,08190000AP0104|08190000AP0112|08190000AP0113|08190000AP0114|08190000AP0115|08190000AP0122|08190000AP0123|08190000AP0124|08190000AP0125|08190000AP0699|08190000AP0704,Point (4.834535 50.135322),4.834535,50.135322
08190_03,"Ardenity – ex-Tesa-Beiersdorf, Sorochimie",friche industrielle,Rue de la Terre aux Pavés,friche sans projet,Givet,08190,240800821,CC Ardenne Rives de Meuse,,Z4a,personne morale,08190+00306,CHAMBRE COMMERCE INDUSTRIE DES ARDENNES,pollution avérée,19836,08190000AY0034|08190000AY0057|08190000AY0064|08190000AY0067|08190000AY0070|08190000AY0072|08190000AY0114|08190000AY0115,Point (4.814647 50.14145),4.814647,50.14145
08190_04,Ardenity – bâtiment à trois niveaux,friche industrielle,Rue de l’Industrie,friche reconvertie,Givet,08190,240800821,CC Ardenne Rives de Meuse,,P4a,personne morale,08190+00635,COMMUNAUTE COMMUNES ARDENNE RIVES MEUSE,pollution traitée,2518,08190000AY0092,Point (4.816587 50.140856),4.816587,50.140856
08190_05,S&M étiquettes,friche industrielle,Route de Philippeville,friche sans projet,Givet,08190,240800821,CC Ardenne Rives de Meuse,,P4a,personne morale,08190+00635,COMMUNAUTE COMMUNES ARDENNE RIVES MEUSE,pollution supposée,10357,08190000AY0053|08190000AY0056|08190000AY0065|08190000AY0068|08190000AY0071|08190000AY0073,Point (4.812665 50.141786),4.812665,50.141786
08190_06,SERT Sogimeca,friche industrielle,Route de Philippeville,friche reconvertie,Givet,08190,240800821,CC Ardenne Rives de Meuse,,G1a,personne morale,08190+00738,SCI,pollution peu probable,11329,08190000AY0019|08190000AY0047|08190000AY0082|08190000AY0086|08190000AY0089,Point (4.815889 50.13918),4.815889,50.13918
08194_01,Centrale électrique Usinor,friche industrielle,Sur la Marlière,friche sans projet,Glaire,08194,200041630,CA Ardenne Métropole,,X1a,personne physique,08194W00018,_X_,pollution supposée,49420,08194000AE0028|08194000AE0029|08194000AE0225,Point (4.89904 49.702262),4.89904,49.702262
08218_01,Établissements Wiart-Autier,friche industrielle,17 rue de la Gravelle,friche avec projet,Les Hautes-Rivières,08218,200067759,CC Vallées et Plateau d’Ardenne,,Z2b,personne morale,08218+00024,_X_,pollution supposée,10232,08218000AO0095|08218000AO0096|08218000AO0097|08218000AO0098|08218000AO0107|08218000AO0108|08218000AO0109|08218000AO0111|08218000AO0112|08218000AO0114|08218000AO0115|08218000AO0155|08218000AO0156|08218000AO0181,Point (4.848167 49.875077),4.848167,49.875077
08218_02,Gare de Sorendal,friche ferroviaire,8 rue de la Roite ,friche sans projet,Les Hautes-Rivières,08218,200067759,CC Vallées et Plateau d’Ardenne,,X1a,personne physique,08218S00173,_X_,pollution inexistante,1426,08218000AO0104|08218000AO0105|08218000AO0106,Point (4.849884 49.875482),4.849884,49.875482
08232_01,Gare d’Illy-Olly,friche ferroviaire,2 route de Fleigneux à Bazeilles – Olly,friche sans projet,Illy,08232,200041630,CA Ardenne Métropole,,X1a,personne physique,08232T00030,_X_,pollution peu probable,1474,082320000B0008|082320000B0332,Point (4.976242 49.742944),4.976242,49.742944
08243_01,Le Bief du Seigneur – Filature puis usine de quincaillerie Brice-Lejay,friche industrielle,Le Bief du Seigneur,friche avec projet,Lalobbe,08243,240800862,CC des Crêtes Préardennaises,,G1a,personne morale,08243+00032,SCI,pollution supposée,89061,082430000B0512|082430000B0595|082430000B0597|082430000B0598|082430000B0599|082430000B0601|082430000B0602|082430000B0603|082430000B0604|082430000B0605|082430000B0606|082430000B0607|082430000B0608|082430000B0610|082430000B0611|082430000B0613|082430000B0614|082430000B0666,Point (4.375506 49.660893),4.375506,49.660893
08248_01,"Entrepôts Champagne-Céréales, transport Boucher",friche agro-industrielle,7 avenue Louis Jolly,friche reconvertie,Launois-sur-Vence,08248,240800862,CC des Crêtes Préardennaises,,G1a,personne morale,08248+00091,SCI,pollution inexistante,2737,08248000AD0005,Point (4.540644 49.653836),4.540644,49.653836
08274_01,Îlot dégradé de la place,friche d’habitat,Place de la Mairie,friche reconvertie,Marcq,08274,240800920,CC de l’Argonne Ardennaise,,F2a|X1a,personne morale|personne physique,08274+00036|08274L00057|08274C00060,_X_|ETABLISSEMENT PUBLIC FONCIER DE GRAND EST,pollution inexistante,2493,08274000AB0207|08274000AB0208|08274000AB0209|08274000AB0307|08274000AB0308|08274000AB0309|08274000AB0310,Point (4.926324 49.320099),4.926324,49.320099
08311_01,Sommer Le Feutre,friche industrielle,Rue du Château,friche avec projet,Mouzon,08311,240800847,CC des Portes du Luxembourg,,P5a|Z1a|M1a,personne morale,08311+00318|08311+00213|08311+00182|08311+00200,_X_|COMMUNE DE MOUZON,pollution avérée,24474,08311000AN0762|08311000AN0763|08311000AN0764|08311000AN0766|08311000AN0767|08311000AN0772|08311000AN0773|08311000AN0774|08311000AN0775|08311000AN0812|08311000AN0813|08311000AN0815|08311000AN0816|08311000AN0817|08311000AN0830|08311000AN0834|08311000AN0835|08311000AN0839|08311000AN0896,Point (5.080434 49.603972),5.080434,49.603972
08314_01,Filature Le Piqûrage,friche industrielle,Rue Frédéric Pâté,friche avec projet,Neuflize,08314,200043156,CC du Pays Rethélois,,P5a,personne morale,08314+00003,COMMUNE DE NEUFLIZE,pollution traitée,1508,08314000AE0209|08314000AE0210|08314000AE0239,Point (4.307866 49.409827),4.307866,49.409827
08327_01,Gare de triage de Nouvion,friche ferroviaire,Route du Triage,friche avec projet,Nouvion-sur-Meuse,08327,200041630,CA Ardenne Métropole,,R2a,personne morale,08327+00118,SOCIETE NATIONALE SNCF,pollution peu probable,231379,08327000AE0282|08327000AH0258,Point (4.783528 49.705591),4.783528,49.705591
08327_02,Bureaux de l’ancienne rotonde,friche ferroviaire,Route du Triage,friche sans projet,Nouvion-sur-Meuse,08327,200041630,CA Ardenne Métropole,,X1a,personne physique,08327D00126,_X_,pollution peu probable,7858,08327000AH0282,Point (4.777856 49.713824),4.777856,49.713824
08328_01,Aciérie Val Thomé,friche industrielle,Rue de Montmeuse,friche avec projet,Nouzonville,08328,200041630,CA Ardenne Métropole,,P4a,personne morale,08328+00446,COMMUNAUTE AGGLO ARDENNE METROPOLE,pollution avérée,52011,08328000AO0036|08328000AO0037|08328000AO0038|08328000AO0045|08328000AO0046|08328000AO0049|08328000AO0054|08328000AO0056|08328000AO0067|08328000AO0070|08328000AO0071|08328000AO0072|08328000AO0073,Point (4.741767 49.811035),4.741767,49.811035
08328_02,Thomé-Génot,friche industrielle,Rue Jean-Baptiste Clément,friche avec projet,Nouzonville,08328,200041630,CA Ardenne Métropole,,P4a|F2a,personne morale,08328+00446|08328+00558,COMMUNAUTE AGGLO ARDENNE METROPOLE|ETABLISSEMENT PUBLIC FONCIER DE GRAND EST,pollution avérée,21927,08328000AO0044|08328000AO0052|08328000AO0080|08328000AP0133|08328000AP0134,Point (4.742794 49.813835),4.742794,49.813835
08328_03,Emplacement ancien Intermarché,friche commerciale,Rue Jean-Baptiste Clément,friche avec projet,Nouzonville,08328,200041630,CA Ardenne Métropole,,P5a,personne morale,08328+00391,COMMUNE DE NOUZONVILLE,pollution peu probable,2977,08328000AO0042|08328000AO0043,Point (4.74282 49.812605),4.74282,49.812605
08328_04,Oil France,friche commerciale,Rue Parmentier,friche reconvertie,Nouzonville,08328,200041630,CA Ardenne Métropole,,G1a,personne morale,08328+00496,SCI,pollution traitée,795,08328000AV0143|08328000AV0437,Point (4.739702 49.817005),4.739702,49.817005
08328_05,Dombret-Becq,friche industrielle,Rue Bara,friche reconvertie,Nouzonville,08328,200041630,CA Ardenne Métropole,,P5a,personne morale,08328+00391,COMMUNE DE NOUZONVILLE,pollution traitée,3390,08328000AL0056|08328000AL0057|08328000AL0059|08328000AL0559|08328000AL0560|08328000AL0789|08328000AL0926,Point (4.745755 49.816404),4.745755,49.816404
08328_06,Ancienne piscine,friche loisir tourisme hôtellerie,Rue Jean Jaurès,friche avec projet,Nouzonville,08328,200041630,CA Ardenne Métropole,,P5a,personne morale,08328+00391,COMMUNE DE NOUZONVILLE,pollution avérée,2465,08328000AP0398,Point (4.744655 49.812497),4.744655,49.812497
08329_01,Scierie Foulon,friche industrielle,Provisy,friche sans projet,Novion-Porcien,08329,240800862,CC des Crêtes Préardennaises,,X1a,personne physique,08329B00065,_X_,pollution supposée,4387,08329000AI0108,Point (4.424022 49.58955),4.424022,49.58955
08329_02,Gendarmerie de Novion-Porcien,friche d’équipement public,12 rue du Clos du Château,friche sans projet,Novion-Porcien,08329,240800862,CC des Crêtes Préardennaises,,P3a F7d,personne morale,08329+00059,BATIMUR|DEPARTEMENT DES ARDENNES,pollution inexistante,2782,08329000AL0180|08329000AL0261,Point (4.419202 49.600463),4.419202,49.600463
08331_01,Textiles sedanais puis Vynex,friche industrielle,3 rue Lamartine,friche reconvertie,Noyers-Pont-Maugis,08331,200041630,CA Ardenne Métropole,,G1a|Z1a|Z2b,personne morale,08331+00102|08331+00104|08331+00106|08331+00083,_X_|SCI,pollution peu probable,20934,08331000AB0468|08331000AB0494|08331000AB0517|08331000AB0540|08331000AB0543|08331000AB0544|08331000AB0545|08331000AB0546|08331000AB0547|08331000AB0548|08331000AB0549|08331000AB0550|08331000AB0551|08331000AB0554|08331000AB0555|08331000AB0602|08331000AB0604|08331000AB0703|08331000AB0704|08331000AB0705|08331000AB0706|08331000AB0707|08331000AB0708,Point (4.956944 49.668456),4.956944,49.668456
08340_01,Fonderie Adin,friche industrielle,Route de Vouziers,friche sans projet,Poilcourt-Sydney,08340,200043156,CC du Pays Rethélois,,P5a,personne morale,08340+00023,COMMUNE DE POILCOURT SIDNEY,pollution supposée,3585,08340000AC0207,Point (4.094411 49.423042),4.094411,49.423042
08341_01,Halle à marchandises pour fret ferroviaire,friche ferroviaire,Rue de la Gare,friche avec projet,Poix-Terron,08341,240800862,CC des Crêtes Préardennaises,,P5a,personne morale,08341+00008,COMMUNE DE POIX TERRON,pollution inexistante,9386,08341000AC0192,Point (4.637596 49.651392),4.637596,49.651392
08343_01,Gare de Pouru-Brévilly,friche ferroviaire,Rue de la Gare,friche sans projet,Pouru-Saint-Remy,08343,200041630,CA Ardenne Métropole,,R2a,personne morale,08343+00077,SOCIETE NATIONALE SNCF,pollution peu probable,1362,08343000AB0352,Point (5.082211 49.673213),5.082211,49.673213
08349_01,Crassier de Messempré,friche industrielle,Route de Messempré,friche sans projet,Pure,08349,240800847,CC des Portes du Luxembourg,,F6c,personne morale,08336+00061|08349+00063,DE MESSEMPRE,pollution avérée,39854,08336000AC0057|08349000AI0166,Point (5.167405 49.667592),5.167405,49.667592
08357_01,Tôlerie J. Nicolas,friche industrielle,41 route de Sedan,friche sans projet,Remilly-Aillicourt,08357,240800847,CC des Portes du Luxembourg,,G1a,personne morale,08357+00088,SCI,pollution supposée,11871,08357000AB0064|08357000AB0162,Point (4.985761 49.656259),4.985761,49.656259
08361_01,Fonderie de l’Union,friche industrielle,Avenue des Martyrs de la Résistance,friche avec projet,Renwez,08361,200067759,CC Vallées et Plateau d’Ardenne,,P5a,personne morale,08361+00088,COMMUNE DE RENWEZ,pollution avérée,17229,083610000C0295|083610000C0436|083610000C0438,Point (4.602858 49.833369),4.602858,49.833369
08362_01,Laiterie Union des Coopératives Agricoles Nord Est Lait,friche agro-industrielle,Rue Hippolyte Noiret,friche sans projet,Rethel,08362,200043156,CC du Pays Rethélois,,P5a,personne morale,08362+00197,COMMUNE DE RETHEL,pollution peu probable,10400,08362000AI0001,Point (4.359515 49.509526),4.359515,49.509526
08362_02,Usine de matériel agricole Goury Martin puis menuiserie Gervais,friche industrielle,Chemin du Lac,friche sans projet,Rethel,08362,200043156,CC du Pays Rethélois,,P5a,personne morale,08362+00197,COMMUNE DE RETHEL,pollution supposée,10087,08362000AL0337,Point (4.368855 49.503202),4.368855,49.503202
08362_03,Aertec,friche industrielle,1 rue Achille Berquet,friche sans projet,Rethel,08362,200043156,CC du Pays Rethélois,,P4a,personne morale,08362+00986,COMMUNAUTE DE COMMUNES DU PAYS RETHELOIS,pollution inexistante,3604,08362000AL0402,Point (4.369377 49.505385),4.369377,49.505385
08362_04,Point P et Docks de l’Oise – secteur gare,friche commerciale,Rue des Dames,friche avec projet,Rethel,08362,200043156,CC du Pays Rethélois,,P5a,personne morale,08362+00197,COMMUNE DE RETHEL,pollution traitée,5750,08362000AL0212,Point (4.367525 49.50463),4.367525,49.50463
08362_05,Ferme Paroche,friche agro-industrielle,1 rue Georges Bizet,friche reconvertie,Rethel,08362,200043156,CC du Pays Rethélois,,F7d|P5a|G1a,personne morale,08362+00656|08362+00197|08362+01085,COMMUNE DE RETHEL|CRCAM DU NORD EST|SCI,pollution inexistante,5501,08362000AB0281|08362000AB0282|08362000AB0301|08362000AB0302|08362000AB0303|08362000AB0304|08362000AB0306|08362000AB0308|08362000AB0309,Point (4.360744 49.513231),4.360744,49.513231
08362_06,Friche Cayenne – filature Gaston Lainé puis usine de mécanique Mécanéral,friche industrielle,Avenue Charles de Gaulle,friche sans projet,Rethel,08362,200043156,CC du Pays Rethélois,,P5a,personne morale,08362+00197,COMMUNE DE RETHEL,pollution supposée,1084,08362000AC0426,Point (4.361576 49.514171),4.361576,49.514171
08362_07,Union et tradition des charpentiers-couvreurs,friche industrielle,Rue des Petits Monts,friche sans projet,Rethel,08362,200043156,CC du Pays Rethélois,,G1a,personne morale,08362+00346,SCI,pollution peu probable,1270,08362000AC0237|08362000AC0242|08362000AC0243|08362000AC0292|08362000AC0293|08362000AC0294|08362000AC0295,Point (4.366611 49.51326),4.366611,49.51326
08362_08,Cartonnerie Martin-Guillemin puis Smurfit Kappa Nord-Est,friche industrielle,Rue Hippolyte Noiret,friche avec projet,Rethel,08362,200043156,CC du Pays Rethélois,,Z1a,personne morale,08362+00799,_X_,pollution avérée,27646,08362000AI0031|08362000AI0099|08362000AI0100|08362000AI0102|08362000AI0103|08362000AI0112|08362000AI0113|08362000AI0114|08362000AI0115|08362000AI0116|08362000AI0117|08362000AI0118|08362000AI0146|08362000AI0149|08362000AI0396|08362000AI0417,Point (4.361435 49.507004),4.361435,49.507004
08362_09,Banque Caisse d’Épargne,friche commerciale,6 place Aristide Briand,friche sans projet,Rethel,08362,200043156,CC du Pays Rethélois,,P5a,personne morale,08362+00197,COMMUNE DE RETHEL,pollution inexistante,813,08362000AH0292,Point (4.364597 49.510699),4.364597,49.510699
08363_01,Société Fers et Métaux,friche industrielle,Rue Jean Moulin,friche sans projet,Revin,08363,240800821,CC Ardenne Rives de Meuse,,X1a,personne physique,08363H00342,_X_,pollution avérée,3950,08363000AI0203,Point (4.641284 49.934128),4.641284,49.934128
08363_02,Porcher – Ideal Standard,friche industrielle,Rue de la Céramique,friche reconvertie,Revin,08363,240800821,CC Ardenne Rives de Meuse,,P4a,personne morale,08363+00666,COMMUNAUTE COMMUNES ARDENNE RIVES MEUSE,pollution traitée,63637,08363000AK0017|08363000AK0019|08363000AK0020|08363000AK0021|08363000AK0022|08363000AK0023|08363000AK0024|08363000AK0206|08363000AK0207|08363000AK0269|08363000AK0271|08363000AK0298|08363000AK0300|08363000AK0301|08363000AK0321|08363000AK0339|08363000AK0340,Point (4.64688 49.937174),4.64688,49.937174
08363_03,Electrolux – Arthur Martin,friche industrielle,Rue Jean-Jacques Rousseau,friche avec projet,Revin,08363,240800821,CC Ardenne Rives de Meuse,,Z1a,personne morale,08363+00653,_X_,pollution avérée,30209,08363000AK0001|08363000AK0002|08363000AK0003|08363000AK0211|08363000AK0212|08363000AK0243|08363000AK0264|08363000AK0266|08363000AK0291|08363000AK0330|08363000AK0335|08363000AK0337,Point (4.644357 49.938048),4.644357,49.938048
08363_04,Oxame,friche industrielle,Rue Jean-Jacques Rousseau,friche avec projet,Revin,08363,240800821,CC Ardenne Rives de Meuse,,F2a|Z1a,personne morale,08363+00772|08363+00653,_X_|ETABLISSEMENT PUBLIC FONCIER DE GRAND EST,pollution traitée,29404,08363000AK0156|08363000AK0208|08363000AK0222|08363000AK0223|08363000AK0297|08363000AK0322,Point (4.645198 49.936362),4.645198,49.936362
08363_05,Fonderie Lebeau,friche industrielle,Rue de la Fonderie,friche reconvertie,Revin,08363,240800821,CC Ardenne Rives de Meuse,,P5a|M2a|G2a|F7b,personne morale,08363+00505|08363+00651|08363*00035|08363+00639,_X_|COMMUNE DE REVIN|COPROPRIETE|NIORT 94,pollution traitée,27013,08363000AK0157|08363000AK0295|08363000AK0306|08363000AK0307|08363000AK0308|08363000AK0309|08363000AK0311|08363000AK0312|08363000AK0314|08363000AK0315|08363000AK0316|08363000AK0317|08363000AK0325|08363000AK0326|08363000AK0327|08363000AK0328,Point (4.64459 49.934931),4.64459,49.934931
08363_06,Hôtel François 1er,friche loisir tourisme hôtellerie,44 quai Camille Desmoulins,friche sans projet,Revin,08363,240800821,CC Ardenne Rives de Meuse,,F7b,personne morale,08363+00759,TAYLAN IMMO PRO,pollution inexistante,659,08363000AE0421,Point (4.640023 49.943653),4.640023,49.943653
08363_07,Surface commerciale Lidl,friche commerciale,Rue Henri Dunant,friche reconvertie,Revin,08363,240800821,CC Ardenne Rives de Meuse,,P5a,personne morale,08363+00505,COMMUNE DE REVIN,pollution inexistante,9833,08363000AN0091|08363000AN0092|08363000AN0096|08363000AN0261,Point (4.641696 49.932591),4.641696,49.932591
08365_01,Ferme Namèche,friche agro-industrielle,Rue du Gard,friche sans projet,Rimogne,08365,200067759,CC Vallées et Plateau d’Ardenne,,X1a,personne physique,08365N00004,_X_,pollution peu probable,3489,08365000AH0095|08365000AH0096,Point (4.53365 49.840412),4.53365,49.840412
08365_02,Gendarmerie de Rimogne,friche d’équipement public,80 rue des Bouilleaux,friche sans projet,Rimogne,08365,200067759,CC Vallées et Plateau d’Ardenne,,P3a F7d,personne morale,08365+00094,BATIMUR|DEPARTEMENT DES ARDENNES,pollution inexistante,2069,08365000AA0023|08365000AA0024,Point (4.53179 49.84381),4.53179,49.84381
08367_01,Fonderie La Persévérance,friche industrielle,4 rue Royale,friche avec projet,Rocroi,08367,200067759,CC Vallées et Plateau d’Ardenne,,P5a|Z1a,personne morale,08367+00012|08367+00068,_X_|COMMUNE DE ROCROI,pollution avérée,17536,08367000AC0187|08367000AC0188|08367000AC0281|08367000AC0282|08367000ZB0151|08367000ZB0152|08367000ZB0153,Point (4.526909 49.926672),4.526909,49.926672
08368_01,Usine Barrois,friche agro-industrielle,27 Grande rue,friche sans projet,Roizy,08368,200043156,CC du Pays Rethélois,,G1a X1a,personne morale|personne physique,08368+00020,_X_|SCI,pollution peu probable,943,08368000AB0287|08368000AB0344|08368000AB0346,Point (4.172262 49.423851),4.172262,49.423851
08370_01,Fromagerie Moreau,friche agro-industrielle,1 rue de Servion,friche sans projet,Rouvroy-sur-Audry,08370,200041622,CC Ardennes Thiérache,,G1a,personne morale,08370+00044,SCI,pollution peu probable,3268,08370000AE0074|08370000AE0177|08370000AK0279,Point (4.495688 49.787995),4.495688,49.787995
08370_02,Gare Rouvroy-L’Échelle bâtiment voyageurs et halle fret,friche ferroviaire,Le Breuil,friche sans projet,Rouvroy-sur-Audry,08370,200041622,CC Ardennes Thiérache,,R2a,personne morale,08370+00084,SOCIETE NATIONALE SNCF,pollution peu probable,23873,08370000ZK0081|08370000ZK0083|08370000ZK0084|08370000ZK0086|08370000ZK0089,Point (4.493249 49.790907),4.493249,49.790907
08373_01,Ancienne gendarmerie de Rumigny,friche d’équipement public,7 rue Édouard Piette,friche avec projet,Rumigny,08373,200041622,CC Ardennes Thiérache,,X1a,personne physique,08373D00153,_X_,pollution inexistante,1810,08373000AB0053|08373000AB0117|08373000AB0118|08373000AB0119,Point (4.264713 49.808251),4.264713,49.808251
08373_02,Ferme des Broises Basses,friche d’équipement public,Les Broises Basses,friche avec projet,Rumigny,08373,200041622,CC Ardennes Thiérache,,P4a,personne morale,08373+00072,CC ARDENNES THIERACHE,pollution inexistante,7948,083730000B0015|083730000B0016|083730000B0139|083730000B0141|083730000B0142|083730000B0152,Point (4.29121 49.819834),4.29121,49.819834
08381_01,Ardennes Chicorée,friche agro-industrielle,Route de Laon,friche reconvertie,Saint-Germainmont,08381,200043156,CC du Pays Rethélois,,Z2b,personne morale,08381+00111,_X_,pollution peu probable,72299,08381000AD0004|08381000AD0009|08381000AD0020|08381000AD0022|08381000AD0025|08381000AD0026|08381000ZI0168|08381000ZI0178|08381000ZI0181,Point (4.133602 49.497631),4.133602,49.497631
08381_02,Sucrerie Linard puis société Sucrière de Saint-Germainmont,friche agro-industrielle,Route de Laon,friche reconvertie,Saint-Germainmont,08381,200043156,CC du Pays Rethélois,,M1a|G1a|M1a X1a,personne morale|personne physique,08381+00107|08381+00108|08381+00085,_X_|SCI,pollution peu probable,81721,08381000AC0086|08381000AC0087|08381000AC0089|08381000AC0090|08381000AC0117|08381000AC0221|08381000AC0223|08381000AC0225|08381000AC0227|08381000AC0230|08381000AC0232|08381000AC0233|08381000AC0234|08381000AC0235,Point (4.133558 49.499802),4.133558,49.499802
08402_01,Silo agricole,friche agro-industrielle,1 rue du Grand Fossé,friche avec projet,Saulces-Monclin,08402,240800862,CC des Crêtes Préardennaises,,P5a,personne morale,08402+00003,COMMUNE DE SAULCES MONCLIN,pollution inexistante,421,08402000AB0114,Point (4.493319 49.576952),4.493319,49.576952
08409_01,Ancien Hôtel de Ville,friche d’équipement public,39 rue de l’Horloge,friche avec projet,Sedan,08409,200041630,CA Ardenne Métropole,,P5a,personne morale,08409+01292,COMMUNE DE SEDAN,pollution inexistante,384,08409000BM0290,Point (4.94616 49.702046),4.94616,49.702046
08409_02,Ancienne sous-préfecture de Sedan,friche d’équipement public,Rue Colbert,friche sans projet,Sedan,08409,200041630,CA Ardenne Métropole,,F7b,personne morale,08409+02045,PEGA,pollution inexistante,4238,08409000BI0017,Point (4.94079 49.703312),4.94079,49.703312
08409_03,Îlots dégradés du centre ancien,friche d’habitat,"Rue de l’Horloge, rue Saint-Michel, rue Sainte-Barbe",friche avec projet,Sedan,08409,200041630,CA Ardenne Métropole,,F4a|F6a|P5a|X1a,personne morale|personne physique,08409+01594|08409+01717|08409+01292|08409Y00026,_X_|COMMUNE DE SEDAN|SARL LES JARDINS DE JOUARRE|SOC EQUIPEMENT AMENAGEMENT DES ARDENNES,pollution inexistante,1789,08409000BM0017|08409000BM0039|08409000BM0041|08409000BM0043|08409000BM0044|08409000BM0056|08409000BM0057|08409000BM0058|08409000BM0059|08409000BM0291|08409000BM0317|08409000BM0321|08409000BM0323|08409000BM0325|08409000BM0326,Point (4.946371 49.702078),4.946371,49.702078
08409_04,Manufacture de tapis Le Point de Sedan,friche industrielle,13 boulevard Gambetta,friche avec projet,Sedan,08409,200041630,CA Ardenne Métropole,,P5a,personne morale,08409+01292,COMMUNE DE SEDAN,pollution inexistante,2627,08409000BK0271|08409000BK0283,Point (4.934909 49.707042),4.934909,49.707042
08409_05,Garage Renault,friche commerciale,Avenue de Verdun,friche avec projet,Sedan,08409,200041630,CA Ardenne Métropole,,P5a,personne morale,08409+01292,COMMUNE DE SEDAN,pollution inexistante,4370,08409000AP0092|08409000AP0674|08409000AP0783,Point (4.947569 49.698025),4.947569,49.698025
08409_06,Hôtel-restaurant Le Relais,friche loisir tourisme hôtellerie,30 rue Gaston Sauvage,friche sans projet,Sedan,08409,200041630,CA Ardenne Métropole,,G1a,personne morale,08409+01907,SCI,pollution inexistante,3128,08409000AW0203|08409000AW0233,Point (4.926149 49.694434),4.926149,49.694434
08409_07,ex-Pôle Emploi,friche d’équipement public,7 rue Colbert,friche reconvertie,Sedan,08409,200041630,CA Ardenne Métropole,,P4a,personne morale,08409+01916,COMMUNAUTE AGGLO ARDENNE METROPOLE,pollution inexistante,216,08409000BI0105,Point (4.940017 49.702633),4.940017,49.702633
08419_01,Socotep,friche industrielle,Rue de l’Abbaye,friche reconvertie,Signy-l’Abbaye,08419,240800862,CC des Crêtes Préardennaises,,P5a,personne morale,08419+00112,COMMUNE DE SIGNY L'ABBAYE,pollution traitée,6842,08419000BE0324,Point (4.419815 49.699962),4.419815,49.699962
08457_01,Kinetec,friche industrielle,27 rue de la Gare,friche reconvertie,Tournes,08457,200041630,CA Ardenne Métropole,,G1a,personne morale,08457+00208,SCI,pollution inexistante,10503,08457000ZE0470,Point (4.631198 49.791292),4.631198,49.791292
08476_01,Sucrerie Saint-Louis,friche agro-industrielle,La Râperie,friche sans projet,Villers-devant-le-Thour,08476,200043156,CC du Pays Rethélois,,X1a|F7b A1a G1c,personne morale|personne physique,08476C00050|08476+00038,_X_|LES ORCHIDEES|SCI,pollution peu probable,18344,08476000ZN0046|08476000ZN0066|08476000ZN0069|08476000ZN0084|08476000ZN0085|08476000ZN0086,Point (4.069364 49.505413),4.069364,49.505413
08486_01,AFEIPH (ex-CAT),friche enseignement,Rue des Forges,friche sans projet,Vireux-Molhain,08486,240800821,CC Ardenne Rives de Meuse,,M1a,personne morale,08486+00267,_X_,pollution peu probable,1325,08486000AC0376,Point (4.718586 50.088372),4.718586,50.088372
08486_02,"Les Hauts Fourneaux de la Chiers, Usinor",friche industrielle,Rue des Forges,friche reconvertie,Vireux-Molhain,08486,240800821,CC Ardenne Rives de Meuse,,P5a|Z2b,personne morale,08486+00225|08486+00280,_X_|COMMUNE DE VIREUX MOLHAIN,pollution supposée,46099,08486000AC0008|08486000AC0413|08486000AC0415|08486000AC0458|08486000AC0476|08486000AC0477,Point (4.722373 50.088586),4.722373,50.088586
08487_01,Gendarmerie de Vireux-Wallerand,friche d’équipement public,Rue de Rognaque,friche sans projet,Vireux-Wallerand,08487,240800821,CC Ardenne Rives de Meuse,,P3a F7d,personne morale,08487+00126,BATIMUR|DEPARTEMENT DES ARDENNES,pollution inexistante,3890,08487000AB0111|08487000AB0114|08487000AB0116,Point (4.731948 50.075973),4.731948,50.075973
08488_01,Derichebourg propreté,friche commerciale,1 route de Vrigne-Meuse,friche reconvertie,Vivier-au-Court,08488,200041630,CA Ardenne Métropole,,G1a,personne morale,08488+00307,SCI,pollution inexistante,2945,08488000ZB0048,Point (4.839483 49.721905),4.839483,49.721905
08488_02,Garages Vivier Autos,friche commerciale,Rue Paul Langevin,friche sans projet,Vivier-au-Court,08488,200041630,CA Ardenne Métropole,,G1a,personne morale,08488+00207,SCI,pollution supposée,865,08488000AC0249,Point (4.835499 49.73454),4.835499,49.73454
08488_03,Local en friche RD 105 (garage ?),friche commerciale,Route de Vrigne-Meuse,friche sans projet,Vivier-au-Court,08488,200041630,CA Ardenne Métropole,,G1a,personne morale,08488+00144,SCI,pollution supposée,2452,08488000ZB0055,Point (4.841685 49.718705),4.841685,49.718705
08488_04,Magasin Lidl,friche commerciale,7 rue Joliot Curie,friche sans projet,Vivier-au-Court,08488,200041630,CA Ardenne Métropole,,Z1a,personne morale,08488+00240,_X_,pollution inexistante,3639,08488000AD0089|08488000AD0090|08488000AD0091|08488000AD0326|08488000AD0327,Point (4.837805 49.732873),4.837805,49.732873
08488_05,Friche Manil (bas),friche industrielle,Rue Ambroise Croizat,friche sans projet,Vivier-au-Court,08488,200041630,CA Ardenne Métropole,,P5a,personne morale,08488+00103,COMMUNE DE VIVIER AU COURT,pollution traitée,13861,08488000AC0043|08488000AC0044|08488000AC0045|08488000AC0308|08488000AC0309|08488000AC0310,Point (4.829609 49.735422),4.829609,49.735422
08488_06,Friche Manil (haut),friche industrielle,Rue Ambroise Croizat,friche reconvertie,Vivier-au-Court,08488,200041630,CA Ardenne Métropole,,P5a,personne morale,08488+00103,COMMUNE DE VIVIER AU COURT,pollution traitée,13766,08488000AC0047|08488000AC0307|08488000AC0342|08488000AC0343,Point (4.830139 49.736549),4.830139,49.736549
08490_01,Tribunal,friche d’équipement public,36 rue Gambetta,friche sans projet,Vouziers,08490,240800920,CC de l’Argonne Ardennaise,,P5a,personne morale,08490+00013,COMMUNE DE VOUZIERS,pollution inexistante,1760,08490000AH0256,Point (4.699543 49.39575),4.699543,49.39575
08490_02,Minoterie Saint-Paul et silos Vivescia,friche agro-industrielle,Rue du Port,friche sans projet,Vouziers,08490,240800920,CC de l’Argonne Ardennaise,,P1b R4c|A1f,personne morale,08490+00220|08490+00420,_X_|ETAT|MINISTERE DE L EQUIPEMENT DU LOGEMENT DE L AMENAGEMENT DU,pollution peu probable,33746,08490000AE0195|08490000AE0214,Point (4.704869 49.403073),4.704869,49.403073
08490_03,Sietam,friche industrielle,57 rue Gambetta,friche reconvertie,Vouziers,08490,240800920,CC de l’Argonne Ardennaise,,R5a|P4a|G1a|M1a|Z2c,personne morale,08490+00535|08490+00452|08490+00454|08490+00711|08490+00738|08490+00690|08490+00760,_X_|COMMUNAUTE COMMUNES ARGONNE ARDENNAISE|EDF GDF SERVICES ARDENNES|ELECTRICITE DE FRANCE|ENEDIS|SCI,pollution supposée,18133,08490000AI0050|08490000AI0100|08490000AI0215|08490000AI0219|08490000AI0233|08490000AI0235|08490000AI0237|08490000AI0243|08490000AI0244|08490000AI0245|08490000AI0246|08490000AI0247|08490000AI0248,Point (4.702459 49.392817),4.702459,49.392817
08490_04,Gare de Vouziers,friche ferroviaire,79 rue Gambetta,friche avec projet,Vouziers,08490,240800920,CC de l’Argonne Ardennaise,,Z2b,personne morale,08490+00722,_X_,pollution inexistante,1633,08490000AI0220,Point (4.705579 49.389645),4.705579,49.389645
08490_05,Galeries Carnot,friche commerciale,42 place Carnot,friche reconvertie,Vouziers,08490,240800920,CC de l’Argonne Ardennaise,,G1a,personne morale,08490+00714,SCI,pollution inexistante,748,08490000AH0016,Point (4.700276 49.397291),4.700276,49.397291
08490_06,Champ de tir de Chestres,friche militaire,Route de Falaise,friche sans projet,Vouziers,08490,240800920,CC de l’Argonne Ardennaise,,P1b,personne morale,08490+00749,ETAT PAR DIRECTION DE L IMMOBILIER DE L ETAT|MINISTERE DE LA DEFENSE,pollution avérée,26811,084900000F0316,Point (4.728098 49.398184),4.728098,49.398184
08490_07,École publique Abel Dodeman,friche enseignement,1 rue du Chemin Salé,friche sans projet,Vouziers,08490,240800920,CC de l’Argonne Ardennaise,,P5a,personne morale,08490+00013,COMMUNE DE VOUZIERS,pollution inexistante,2995,08490000AB0382,Point (4.697976 49.398048),4.697976,49.398048
08490_08,École primaire publique Hippolyte Taine,friche enseignement,16 rue Désiré Guelliot,friche sans projet,Vouziers,08490,240800920,CC de l’Argonne Ardennaise,,P5a,personne morale,08490+00013,COMMUNE DE VOUZIERS,pollution inexistante,2319,08490000AH0128|08490000AH0133|08490000AH0594,Point (4.70327 49.396985),4.70327,49.396985
08491_01,Usine Jardinier-Massard,friche industrielle,Quai de la Ferronnerie,friche avec projet,Vrigne aux Bois,08491,200041630,CA Ardenne Métropole,,P5a|Z1a,personne morale,08491+00391|08491+00399,_X_|COMMUNE DE VRIGNE-AUX-BOIS,pollution avérée,45352,08491000AD0779|08491000AD0780|08491000ZE0103|08491000ZE0104|08491000ZE0105|08491000ZE0106|08491000ZE0264,Point (4.85453 49.733738),4.85453,49.733738
08491_02,Château Évain,friche enseignement,Rue Pasteur,friche avec projet,Vrigne aux Bois,08491,200041630,CA Ardenne Métropole,,P5a,personne morale,08491+00006,COMMUNE DE VRIGNE-AUX-BOIS,pollution inexistante,2489,08491000AD0286,Point (4.857901 49.735881),4.857901,49.735881
08491_03,La Claire,friche industrielle,Bosseval Prés de la Claire,friche sans projet,Vrigne aux Bois,08491,200041630,CA Ardenne Métropole,,X1a,personne physique,08491H00166,_X_,pollution peu probable,9128,08491072AD0155|08491072AD0156|08491072AD0157|08491072AD0158|08491072AD0162,Point (4.88805 49.753009),4.88805,49.753009
08494_01,Transports Mory,friche logistique,Route de Sedan,friche sans projet,Wadelincourt,08494,200041630,CA Ardenne Métropole,,F7b,personne morale,08409+01365|08494+00041,COFETRANS,pollution supposée,73436,08409000AV0421|08494000AC0001|08494000AC0006|08494000AC0007|08494000AC0133|08494000AC0135|08494000AC0136|08494000AC0138,Point (4.935851 49.69183),4.935851,49.69183
08499_01,Gare de Wasigny-La-Neuville,friche ferroviaire,1 La Gare,friche reconvertie,Wasigny,08499,240800862,CC des Crêtes Préardennaises,,X1a,personne physique,08499L00139,_X_,pollution inexistante,1751,084990000C0479|084990000C0483,Point (4.347069 49.624226),4.347069,49.624226
